{
    "Turkey": [
  {
    "airport_name": "Adana Şakirpaşa Havalimanı",
    "iata_code": "ADA",
    "latitude": 37.001, 
    "longitude": 35.322
  },
  {
    "airport_name": "Ankara Esenboğa Havalimanı",
    "iata_code": "ESB",
    "latitude": 40.1281,
    "longitude": 32.9951
  },
  {
    "airport_name": "Antalya Havalimanı",
    "iata_code": "AYT",
    "latitude": 36.8981,
    "longitude": 30.8007
  },
  {
    "airport_name": "İstanbul Havalimanı",
    "iata_code": "IST",
    "latitude": 41.2753,
    "longitude": 28.7519
  },
  {
    "airport_name": "İstanbul Sabiha Gökçen Havalimanı",
    "iata_code": "SAW",
    "latitude": 40.8986,
    "longitude": 29.3092
  },
  {
    "airport_name": "İzmir Adnan Menderes Havalimanı",
    "iata_code": "ADB",
    "latitude": 38.2924,
    "longitude": 27.1557
  },
  {
    "airport_name": "Trabzon Havalimanı",
    "iata_code": "TZX",
    "latitude": 40.995,
    "longitude": 39.788
  },
  {
    "airport_name": "Dalaman Havalimanı",
    "iata_code": "DLM",
    "latitude": 36.7131,
    "longitude": 28.7924
  },
  {
    "airport_name": "Bodrum Milas Havalimanı",
    "iata_code": "BJV",
    "latitude": 37.2506,
    "longitude": 27.6644
  },
  {
    "airport_name": "Gaziantep Havalimanı",
    "iata_code": "GZT",
    "latitude": 36.9472,
    "longitude": 37.4787
  },
  {
    "airport_name": "Kayseri Erkilet Havalimanı",
    "iata_code": "ASR",
    "latitude": 38.7704,
    "longitude": 35.4954
  },
  {
    "airport_name": "Konya Havalimanı",
    "iata_code": "KYA",
    "latitude": 37.979,
    "longitude": 32.561
  },
  {
    "airport_name": "Samsun Çarşamba Havalimanı",
    "iata_code": "SZF",
    "latitude": 41.2544,
    "longitude": 36.5671
  },
  {
    "airport_name": "Van Ferit Melen Havalimanı",
    "iata_code": "VAN",
    "latitude": 38.4682,
    "longitude": 43.3323
  },
  {
    "airport_name": "Diyarbakır Havalimanı",
    "iata_code": "DIY",
    "latitude": 37.8944,
    "longitude": 40.2006
  },
  {
    "airport_name": "Hatay Havalimanı",
    "iata_code": "HTY",
    "latitude": 36.3628,
    "longitude": 36.2822
  }
],

    "Germany": [
  {
    "airport_name": "Frankfurt Airport",
    "iata_code": "FRA",
    "latitude": 50.033333,
    "longitude": 8.570556
  },
  {
    "airport_name": "Munich Airport",
    "iata_code": "MUC",
    "latitude": 48.353783,
    "longitude": 11.786086
  },
  {
    "airport_name": "Berlin Brandenburg Airport",
    "iata_code": "BER",
    "latitude": 52.366667,
    "longitude": 13.503333
  },
  {
    "airport_name": "Düsseldorf Airport",
    "iata_code": "DUS",
    "latitude": 51.289444,
    "longitude": 6.766667
  },
  {
    "airport_name": "Hamburg Airport",
    "iata_code": "HAM",
    "latitude": 53.630278,
    "longitude": 9.988333
  },
  {
    "airport_name": "Stuttgart Airport",
    "iata_code": "STR",
    "latitude": 48.689878,
    "longitude": 9.221964
  },
  {
    "airport_name": "Cologne Bonn Airport",
    "iata_code": "CGN",
    "latitude": 50.865917,
    "longitude": 7.142744
  },
  {
    "airport_name": "Hanover Airport",
    "iata_code": "HAJ",
    "latitude": 52.461056,
    "longitude": 9.683333
  },
  {
    "airport_name": "Nuremberg Airport",
    "iata_code": "NUE",
    "latitude": 49.4987,
    "longitude": 11.078056
  },
  {
    "airport_name": "Leipzig/Halle Airport",
    "iata_code": "LEJ",
    "latitude": 51.423889,
    "longitude": 12.236389
  }
],

    "Albania": [
    {
      "airport_name": "Tirana International Airport (Nënë Tereza Airport)",
      "iata_code": "TIA",
      "latitude": 41.4147,
      "longitude": 19.7206
    },
    {
      "airport_name": "Kukës Sheikh Zayed International Airport",
      "iata_code": "LAKU",
      "latitude": 42.0044,
      "longitude": 20.415
    },
    {
      "airport_name": "Saranda Airport",
      "iata_code": "LASR",
      "latitude": 39.875,
      "longitude": 20.005
    },
    {
      "airport_name": "Shkodër Airport",
      "iata_code": "LASK",
      "latitude": 42.0685,
      "longitude": 19.5126
    },
    {
      "airport_name": "Korçë Northwest Airport",
      "iata_code": "LAKO",
      "latitude": 40.6181,
      "longitude": 20.7808
    },
    {
      "airport_name": "Kuçovë Air Base",
      "iata_code": "LAKV",
      "latitude": 40.7719,
      "longitude": 19.9222
    },
    {
      "airport_name": "Gjader Air Base",
      "iata_code": "LAGJ",
      "latitude": 41.895,
      "longitude": 19.595
    },
    {
      "airport_name": "Vlorë Air Base",
      "iata_code": "LAVL",
      "latitude": 40.4761,
      "longitude": 19.4747
    }
  ],
  "Austria": [
    {
      "airport_name": "Vienna International Airport",
      "iata_code": "VIE",
      "latitude": 48.1103,
      "longitude": 16.5697
    },
    {
      "airport_name": "Graz Airport",
      "iata_code": "GRZ",
      "latitude": 46.9911,
      "longitude": 15.4396
    },
    {
      "airport_name": "Innsbruck Airport",
      "iata_code": "INN",
      "latitude": 47.2602,
      "longitude": 11.3439
    },
    {
      "airport_name": "Klagenfurt Airport",
      "iata_code": "KLU",
      "latitude": 46.6425,
      "longitude": 14.3377
    },
    {
      "airport_name": "Linz Airport",
      "iata_code": "LNZ",
      "latitude": 48.2332,
      "longitude": 14.1875
    },
    {
      "airport_name": "Salzburg Airport",
      "iata_code": "SZG",
      "latitude": 47.7933,
      "longitude": 13.0043
    },
    {
      "airport_name": "Hohenems-Dornbirn Airport",
      "iata_code": "HOH",
      "latitude": 47.3844,
      "longitude": 9.6994
    }
  ],
  "Azerbaijan": [
    {
      "airport_name": "Heydar Aliyev International Airport",
      "iata_code": "GYD",
      "latitude": 40.4675,
      "longitude": 50.0467
    },
    {
      "airport_name": "Ganja International Airport",
      "iata_code": "GNJ",
      "latitude": 40.7377,
      "longitude": 46.3176
    },
    {
      "airport_name": "Nakhchivan Airport",
      "iata_code": "NAJ",
      "latitude": 39.1888,
      "longitude": 45.4584
    },
    {
      "airport_name": "Lankaran International Airport",
      "iata_code": "LLK",
      "latitude": 38.7464,
      "longitude": 48.818
    },
    {
      "airport_name": "Gabala International Airport",
      "iata_code": "GBB",
      "latitude": 40.8267,
      "longitude": 47.7125
    },
    {
      "airport_name": "Zaqatala International Airport",
      "iata_code": "ZTU",
      "latitude": 41.5622,
      "longitude": 46.6672
    },
    {
      "airport_name": "Fuzuli International Airport",
      "iata_code": "FZL",
      "latitude": 39.6006,
      "longitude": 47.1183
    },
    {
      "airport_name": "Zangilan International Airport",
      "iata_code": "ZZE",
      "latitude": 39.0811,
      "longitude": 46.6544
    },
    {
      "airport_name": "Balakan Airport",
      "iata_code": "BFX",
      "latitude": 41.725,
      "longitude": 46.3894
    },
    {
      "airport_name": "Yevlakh Airport",
      "iata_code": "YLV",
      "latitude": 40.6183,
      "longitude": 47.1503
    }
  ],
  "Bahrain": [
    {
      "airport_name": "Bahrain International Airport",
      "iata_code": "BAH",
      "latitude": 26.2708,
      "longitude": 50.6336
    },
    {
      "airport_name": "Muharraq Air Base",
      "iata_code": "OBBI",
      "latitude": 26.2654,
      "longitude": 50.6377
    },
    {
      "airport_name": "Isa Air Base",
      "iata_code": "OBBS",
      "latitude": 25.9182,
      "longitude": 50.5906
    },
    {
      "airport_name": "Sakhir Air Base",
      "iata_code": "OBKH",
      "latitude": 26.0333,
      "longitude": 50.5333
    },
    {
      "airport_name": "Riffa Air Base",
      "iata_code": "OBBI",
      "latitude": 26.1167,
      "longitude": 50.5500
    },
    {
      "airport_name": "Sheikh Isa Air Base",
      "iata_code": "OBBS",
      "latitude": 25.9182,
      "longitude": 50.5906
    },
    {
      "airport_name": "Bahrain Air Base",
      "iata_code": "OBKH",
      "latitude": 26.0333,
      "longitude": 50.5333
    }
  ],
  "Belgium": [
    {
      "airport_name": "Brussels Airport",
      "iata_code": "BRU",
      "latitude": 50.9014,
      "longitude": 4.4844
    },
    {
      "airport_name": "Antwerp International Airport",
      "iata_code": "ANR",
      "latitude": 51.1894,
      "longitude": 4.4603
    },
    {
      "airport_name": "Charleroi Airport",
      "iata_code": "CRL",
      "latitude": 50.4592,
      "longitude": 4.4538
    },
    {
      "airport_name": "Liège Airport",
      "iata_code": "LGG",
      "latitude": 50.6374,
      "longitude": 5.4432
    },
    {
      "airport_name": "Ostend-Bruges International Airport",
      "iata_code": "OST",
      "latitude": 51.1989,
      "longitude": 2.8622
    },
    {
      "airport_name": "Kortrijk-Wevelgem International Airport",
      "iata_code": "KJK",
      "latitude": 50.8172,
      "longitude": 3.2047
    },
    {
      "airport_name": "Saint Hubert Air Base",
      "iata_code": "EBST",
      "latitude": 50.0344,
      "longitude": 5.4397
    },
    {
      "airport_name": "Florennes Air Base",
      "iata_code": "EBFS",
      "latitude": 50.2433,
      "longitude": 4.6458
    },
    {
      "airport_name": "Kleine Brogel Air Base",
      "iata_code": "EBBL",
      "latitude": 51.1683,
      "longitude": 5.4697
    },
    {
      "airport_name": "Beauvechain Air Base",
      "iata_code": "EBBE",
      "latitude": 50.7586,
      "longitude": 4.7681
    }
  ],
  "Bosna and Herzegovina": [
    {
      "airport_name": "Sarajevo International Airport",
      "iata_code": "SJJ",
      "latitude": 43.8246,
      "longitude": 18.3315
    },
    {
      "airport_name": "Banja Luka International Airport",
      "iata_code": "BNX",
      "latitude": 44.9414,
      "longitude": 17.2975
    },
    {
      "airport_name": "Mostar International Airport",
      "iata_code": "OMO",
      "latitude": 43.2829,
      "longitude": 17.8459
    },
    {
      "airport_name": "Tuzla International Airport",
      "iata_code": "TZL",
      "latitude": 44.4587,
      "longitude": 18.7248
    },
    {
      "airport_name": "Bihac Airport",
      "iata_code": "BHK",
      "latitude": 44.8167,
      "longitude": 15.8667
    },
    {
      "airport_name": "Bijeljina Airport",
      "iata_code": "BNX",
      "latitude": 44.7587,
      "longitude": 19.2144
    },
    {
      "airport_name": "Brcko Airport",
      "iata_code": "BHK",
      "latitude": 44.8728,
      "longitude": 18.8103
    },
    {
      "airport_name": "Bugojno Airport",
      "iata_code": "OMO",
      "latitude": 44.0578,
      "longitude": 17.4503
    },
    {
      "airport_name": "Cazin Airport",
      "iata_code": "TZL",
      "latitude": 44.9667,
      "longitude": 15.9333
    },
    {
      "airport_name": "Derventa Airport",
      "iata_code": "BNX",
      "latitude": 44.9778,
      "longitude": 17.9083
    }
  ],
  "Bulgaria": [
    {
      "airport_name": "Sofia Airport",
      "iata_code": "SOF",
      "latitude": 42.6952,
      "longitude": 23.4062
    },
    {
      "airport_name": "Varna Airport",
      "iata_code": "VAR",
      "latitude": 43.2321,
      "longitude": 27.8251
    },
    {
      "airport_name": "Burgas Airport",
      "iata_code": "BOJ",
      "latitude": 42.5696,
      "longitude": 27.5152
    },
    {
      "airport_name": "Plovdiv Airport",
      "iata_code": "PDV",
      "latitude": 42.0678,
      "longitude": 24.8508
    },
    {
      "airport_name": "Gorna Oryahovitsa Airport",
      "iata_code": "GOZ",
      "latitude": 43.1514,
      "longitude": 25.7129
    },
    {
      "airport_name": "Ruse Airport",
      "iata_code": "ROU",
      "latitude": 43.8144,
      "longitude": 26.0006
    },
    {
      "airport_name": "Stara Zagora Airport",
      "iata_code": "SZR",
      "latitude": 42.3767,
      "longitude": 25.6556
    },
    {
      "airport_name": "Haskovo Malevo Airport",
      "iata_code": "HKV",
      "latitude": 41.9764,
      "longitude": 25.5894
    },
    {
      "airport_name": "Kardzhali Airport",
      "iata_code": "KDG",
      "latitude": 41.6333,
      "longitude": 25.3667
    },
    {
      "airport_name": "Kazanlak Airport",
      "iata_code": "KZK",
      "latitude": 42.6167,
      "longitude": 25.3833
    }
  ],
  "Croatia": [
    {
      "airport_name": "Zagreb Airport",
      "iata_code": "ZAG",
      "latitude": 45.7429,
      "longitude": 16.0688
    },
    {
      "airport_name": "Split Airport",
      "iata_code": "SPU",
      "latitude": 43.5389,
      "longitude": 16.2975
    },
    {
      "airport_name": "Dubrovnik Airport",
      "iata_code": "DBV",
      "latitude": 42.5614,
      "longitude": 18.2682
    },
    {
      "airport_name": "Pula Airport",
      "iata_code": "PUY",
      "latitude": 44.8935,
      "longitude": 13.9222
    },
    {
      "airport_name": "Zadar Airport",
      "iata_code": "ZAD",
      "latitude": 44.1083,
      "longitude": 15.3467
    },
    {
      "airport_name": "Rijeka Airport",
      "iata_code": "RJK",
      "latitude": 45.2169,
      "longitude": 14.5703
    },
    {
      "airport_name": "Osijek Airport",
      "iata_code": "OSI",
      "latitude": 45.4627,
      "longitude": 18.8102
    },
    {
      "airport_name": "Bol Airport",
      "iata_code": "BWK",
      "latitude": 43.2857,
      "longitude": 16.6797
    },
    {
      "airport_name": "Brac Airport",
      "iata_code": "BWK",
      "latitude": 43.2857,
      "longitude": 16.6797
    },
    {
      "airport_name": "Losinj Airport",
      "iata_code": "LSZ",
      "latitude": 44.5658,
      "longitude": 14.3931
    }
  ],
  "Czech Republic": [
    {
      "airport_name": "Václav Havel Airport Prague",
      "iata_code": "PRG",
      "latitude": 50.1008,
      "longitude": 14.2632
    },
    {
      "airport_name": "Brno-Tuřany Airport",
      "iata_code": "BRQ",
      "latitude": 49.1513,
      "longitude": 16.6944
    },
    {
      "airport_name": "Ostrava Leos Janáček Airport",
      "iata_code": "OSR",
      "latitude": 49.6963,
      "longitude": 18.1111
    },
    {
      "airport_name": "Karlovy Vary Airport",
      "iata_code": "KLV",
      "latitude": 50.2031,
      "longitude": 12.9147
    },
    {
      "airport_name": "Pardubice Airport",
      "iata_code": "PED",
      "latitude": 50.0134,
      "longitude": 15.7386
    },
    {
      "airport_name": "Kunovice Airport",
      "iata_code": "UHE",
      "latitude": 49.0294,
      "longitude": 17.4397
    },
    {
      "airport_name": "Hradec Králové Airport",
      "iata_code": "LKHK",
      "latitude": 50.2533,
      "longitude": 15.8453
    },
    {
      "airport_name": "Mladá Boleslav Airport",
      "iata_code": "LKMB",
      "latitude": 50.4167,
      "longitude": 14.9167
    },
    {
      "airport_name": "Plzeň Line Airport",
      "iata_code": "LKLN",
      "latitude": 49.675,
      "longitude": 13.2744
    },
    {
      "airport_name": "Kladno Airport",
      "iata_code": "LKKB",
      "latitude": 50.1167,
      "longitude": 14.1
    }
  ],
  "Denmark": [
    {
      "airport_name": "Copenhagen Airport",
      "iata_code": "CPH",
      "latitude": 55.6181,
      "longitude": 12.656
    },
    {
      "airport_name": "Billund Airport",
      "iata_code": "BLL",
      "latitude": 55.7403,
      "longitude": 9.1518
    },
    {
      "airport_name": "Aalborg Airport",
      "iata_code": "AAL",
      "latitude": 57.0928,
      "longitude": 9.8492
    },
    {
      "airport_name": "Aarhus Airport",
      "iata_code": "AAR",
      "latitude": 56.2998,
      "longitude": 10.619
    },
    {
      "airport_name": "Esbjerg Airport",
      "iata_code": "EBJ",
      "latitude": 55.5259,
      "longitude": 8.5534
    },
    {
      "airport_name": "Karup Airport",
      "iata_code": "KRP",
      "latitude": 56.2975,
      "longitude": 9.1246
    },
    {
      "airport_name": "Odense Airport",
      "iata_code": "ODE",
      "latitude": 55.4767,
      "longitude": 10.3309
    },
    {
      "airport_name": "Roskilde Airport",
      "iata_code": "RKE",
      "latitude": 55.5856,
      "longitude": 12.1314
    },
    {
      "airport_name": "Sindal Airport",
      "iata_code": "CNL",
      "latitude": 57.5035,
      "longitude": 10.2294
    },
    {
      "airport_name": "Sønderborg Airport",
      "iata_code": "SGD",
      "latitude": 54.9644,
      "longitude": 9.7917
    }
  ],
  "Egypt": [
    {
      "airport_name": "Cairo International Airport",
      "iata_code": "CAI",
      "latitude": 30.1219,
      "longitude": 31.4056
    },
    {
      "airport_name": "Hurghada International Airport",
      "iata_code": "HRG",
      "latitude": 27.1783,
      "longitude": 33.7994
    },
    {
      "airport_name": "Sharm El Sheikh International Airport",
      "iata_code": "SSH",
      "latitude": 27.9773,
      "longitude": 34.3951
    },
    {
      "airport_name": "Luxor International Airport",
      "iata_code": "LXR",
      "latitude": 25.671,
      "longitude": 32.7066
    },
    {
      "airport_name": "Marsa Alam International Airport",
      "iata_code": "RMF",
      "latitude": 25.5571,
      "longitude": 34.5837
    },
    {
      "airport_name": "Alexandria International Airport",
      "iata_code": "ALY",
      "latitude": 31.1839,
      "longitude": 29.9489
    },
    {
      "airport_name": "Aswan International Airport",
      "iata_code": "ASW",
      "latitude": 23.9644,
      "longitude": 32.8199
    },
    {
      "airport_name": "Borg El Arab Airport",
      "iata_code": "HBE",
      "latitude": 30.9177,
      "longitude": 29.6964
    },
    {
      "airport_name": "El Arish International Airport",
      "iata_code": "AAC",
      "latitude": 31.0733,
      "longitude": 33.8358
    },
    {
      "airport_name": "Marsa Matruh International Airport",
      "iata_code": "MUH",
      "latitude": 31.3254,
      "longitude": 27.2217
    }
  ],
  "Estonia": [
    {
      "airport_name": "Tallinn Airport",
      "iata_code": "TLL",
      "latitude": 59.4133,
      "longitude": 24.8328
    },
    {
      "airport_name": "Tartu Airport",
      "iata_code": "TAY",
      "latitude": 58.3075,
      "longitude": 26.6904
    },
    {
      "airport_name": "Kuressaare Airport",
      "iata_code": "URE",
      "latitude": 58.2299,
      "longitude": 22.5095
    },
    {
      "airport_name": "Pärnu Airport",
      "iata_code": "EPU",
      "latitude": 58.418,
      "longitude": 24.4728
    },
    {
      "airport_name": "Kärdla Airport",
      "iata_code": "KDL",
      "latitude": 58.9908,
      "longitude": 22.8307
    },
    {
      "airport_name": "Ruhnu Airfield",
      "iata_code": "RHN",
      "latitude": 57.7833,
      "longitude": 23.2667
    },
    {
      "airport_name": "Kihnu Airfield",
      "iata_code": "KHN",
      "latitude": 58.1167,
      "longitude": 24.0167
    },
    {
      "airport_name": "Vormsi Airfield",
      "iata_code": "VRM",
      "latitude": 59.0000,
      "longitude": 23.2167
    },
    {
      "airport_name": "Kuressaare Airfield",
      "iata_code": "URE",
      "latitude": 58.2299,
      "longitude": 22.5095
    },
    {
      "airport_name": "Pärnu Airfield",
      "iata_code": "EPU",
      "latitude": 58.418,
      "longitude": 24.4728
    }
  ],
  "Finland": [
    {
      "airport_name": "Helsinki Airport",
      "iata_code": "HEL",
      "latitude": 60.3172,
      "longitude": 24.9633
    },
    {
      "airport_name": "Oulu Airport",
      "iata_code": "OUL",
      "latitude": 64.9301,
      "longitude": 25.3546
    },
    {
      "airport_name": "Turku Airport",
      "iata_code": "TKU",
      "latitude": 60.5141,
      "longitude": 22.2628
    },
    {
      "airport_name": "Tampere-Pirkkala Airport",
      "iata_code": "TMP",
      "latitude": 61.4141,
      "longitude": 23.6044
    },
    {
      "airport_name": "Rovaniemi Airport",
      "iata_code": "RVN",
      "latitude": 66.5648,
      "longitude": 25.8304
    },
    {
      "airport_name": "Kuopio Airport",
      "iata_code": "KUO",
      "latitude": 63.0071,
      "longitude": 27.7978
    },
    {
      "airport_name": "Vaasa Airport",
      "iata_code": "VAA",
      "latitude": 63.0507,
      "longitude": 21.7622
    },
    {
      "airport_name": "Lappeenranta Airport",
      "iata_code": "LPP",
      "latitude": 61.0446,
      "longitude": 28.1444
    },
    {
      "airport_name": "Joensuu Airport",
      "iata_code": "JOE",
      "latitude": 62.6629,
      "longitude": 29.6075
    },
    {
      "airport_name": "Kittilä Airport",
      "iata_code": "KTT",
      "latitude": 67.701,
      "longitude": 24.8468
    }
  ],
  "France": [
    {
      "airport_name": "Paris Charles de Gaulle Airport",
      "iata_code": "CDG",
      "latitude": 49.0097,
      "longitude": 2.5479
    },
    {
      "airport_name": "Paris Orly Airport",
      "iata_code": "ORY",
      "latitude": 48.7233,
      "longitude": 2.3794
    },
    {
      "airport_name": "Nice Côte d'Azur Airport",
      "iata_code": "NCE",
      "latitude": 43.6584,
      "longitude": 7.2159
    },
    {
      "airport_name": "Lyon-Saint Exupéry Airport",
      "iata_code": "LYS",
      "latitude": 45.7256,
      "longitude": 5.0811
    },
    {
      "airport_name": "Marseille Provence Airport",
      "iata_code": "MRS",
      "latitude": 43.4367,
      "longitude": 5.215
    },
    {
      "airport_name": "Toulouse-Blagnac Airport",
      "iata_code": "TLS",
      "latitude": 43.6293,
      "longitude": 1.3638
    },
    {
      "airport_name": "Bordeaux-Mérignac Airport",
      "iata_code": "BOD",
      "latitude": 44.8283,
      "longitude": -0.7156
    },
    {
      "airport_name": "Nantes Atlantique Airport",
      "iata_code": "NTE",
      "latitude": 47.1532,
      "longitude": -1.6107
    },
    {
      "airport_name": "Strasbourg Airport",
      "iata_code": "SXB",
      "latitude": 48.5383,
      "longitude": 7.6282
    },
    {
      "airport_name": "Lille Airport",
      "iata_code": "LIL",
      "latitude": 50.5619,
      "longitude": 3.0894
    }
  ],
  "Georgia": [
    {
      "airport_name": "Tbilisi International Airport",
      "iata_code": "TBS",
      "latitude": 41.6692,
      "longitude": 44.9547
    },
    {
      "airport_name": "Kutaisi International Airport",
      "iata_code": "KUT",
      "latitude": 42.1767,
      "longitude": 42.4826
    },
    {
      "airport_name": "Batumi International Airport",
      "iata_code": "BUS",
      "latitude": 41.6103,
      "longitude": 41.5997
    },
    {
      "airport_name": "Sukhumi Babushara Airport",
      "iata_code": "SUI",
      "latitude": 42.8582,
      "longitude": 41.1281
    },
    {
      "airport_name": "Mestia Queen Tamar Airport",
      "iata_code": "UGMS",
      "latitude": 43.0533,
      "longitude": 42.749
    },
    {
      "airport_name": "Ambrolauri Airport",
      "iata_code": "UGAM",
      "latitude": 42.5294,
      "longitude": 43.1564
    },
    {
      "airport_name": "Natakhtari Airfield",
      "iata_code": "UGNS",
      "latitude": 41.8706,
      "longitude": 44.7194
    },
    {
      "airport_name": "Oni Airport",
      "iata_code": "UGEO",
      "latitude": 42.5806,
      "longitude": 43.4428
    },
    {
      "airport_name": "Rustavi Airport",
      "iata_code": "UGER",
      "latitude": 41.5494,
      "longitude": 45.0378
    },
    {
      "airport_name": "Tianeti Airport",
      "iata_code": "UGET",
      "latitude": 42.1,
      "longitude": 44.95
    }
  ],
  "Greece": [
    {
      "airport_name": "Athens International Airport",
      "iata_code": "ATH",
      "latitude": 37.9364,
      "longitude": 23.9445
    },
    {
      "airport_name": "Thessaloniki Airport",
      "iata_code": "SKG",
      "latitude": 40.5197,
      "longitude": 22.9709
    },
    {
      "airport_name": "Heraklion International Airport",
      "iata_code": "HER",
      "latitude": 35.3397,
      "longitude": 25.1803
    },
    {
      "airport_name": "Rhodes International Airport",
      "iata_code": "RHO",
      "latitude": 36.4054,
      "longitude": 28.0862
    },
    {
      "airport_name": "Chania International Airport",
      "iata_code": "CHQ",
      "latitude": 35.5317,
      "longitude": 24.1497
    },
    {
      "airport_name": "Corfu International Airport",
      "iata_code": "CFU",
      "latitude": 39.6019,
      "longitude": 19.9117
    },
    {
      "airport_name": "Santorini (Thira) International Airport",
      "iata_code": "JTR",
      "latitude": 36.3992,
      "longitude": 25.4793
    },
    {
      "airport_name": "Mykonos Airport",
      "iata_code": "JMK",
      "latitude": 37.4351,
      "longitude": 25.3481
    },
    {
      "airport_name": "Kos International Airport",
      "iata_code": "KGS",
      "latitude": 36.7933,
      "longitude": 27.0917
    },
    {
      "airport_name": "Zakynthos International Airport",
      "iata_code": "ZTH",
      "latitude": 37.7509,
      "longitude": 20.8843
    }
  ],
  "Hungary": [
    {
      "airport_name": "Budapest Ferenc Liszt International Airport",
      "iata_code": "BUD",
      "latitude": 47.4369,
      "longitude": 19.2556
    },
    {
      "airport_name": "Debrecen International Airport",
      "iata_code": "DEB",
      "latitude": 47.4889,
      "longitude": 21.6153
    },
    {
      "airport_name": "Hévíz-Balaton Airport",
      "iata_code": "SOB",
      "latitude": 46.6864,
      "longitude": 17.1591
    },
    {
      "airport_name": "Győr-Pér International Airport",
      "iata_code": "QGY",
      "latitude": 47.6244,
      "longitude": 17.8133
    },
    {
      "airport_name": "Nyíregyháza Airport",
      "iata_code": "QGY",
      "latitude": 47.9833,
      "longitude": 21.6833
    },
    {
      "airport_name": "Szeged Airport",
      "iata_code": "QGY",
      "latitude": 46.25,
      "longitude": 20.1
    },
    {
      "airport_name": "Szombathely Airport",
      "iata_code": "QGY",
      "latitude": 47.25,
      "longitude": 16.6333
    },
    {
      "airport_name": "Tököl Airport",
      "iata_code": "QGY",
      "latitude": 47.35,
      "longitude": 18.9833
    },
    {
      "airport_name": "Budaörs Airport",
      "iata_code": "QGY",
      "latitude": 47.45,
      "longitude": 18.9667
    },
    {
      "airport_name": "Dunakeszi Airport",
      "iata_code": "QGY",
      "latitude": 47.6333,
      "longitude": 19.1333
    }
  ],
  "Iran": [
    {
      "airport_name": "Imam Khomeini International Airport",
      "iata_code": "IKA",
      "latitude": 35.4161,
      "longitude": 51.1522
    },
    {
      "airport_name": "Mehrabad International Airport",
      "iata_code": "THR",
      "latitude": 35.6892,
      "longitude": 51.3134
    },
    {
      "airport_name": "Mashhad International Airport",
      "iata_code": "MHD",
      "latitude": 36.234,
      "longitude": 59.6406
    },
    {
      "airport_name": "Shiraz International Airport",
      "iata_code": "SYZ",
      "latitude": 29.5392,
      "longitude": 52.5898
    },
    {
      "airport_name": "Tabriz International Airport",
      "iata_code": "TBZ",
      "latitude": 38.1339,
      "longitude": 46.235
    },
    {
      "airport_name": "Isfahan International Airport",
      "iata_code": "IFN",
      "latitude": 32.7508,
      "longitude": 51.8613
    },
    {
      "airport_name": "Kish International Airport",
      "iata_code": "KIH",
      "latitude": 26.5262,
      "longitude": 53.9803
    },
    {
      "airport_name": "Ahvaz International Airport",
      "iata_code": "AWZ",
      "latitude": 31.3374,
      "longitude": 48.7619
    },
    {
      "airport_name": "Bandar Abbas International Airport",
      "iata_code": "BND",
      "latitude": 27.2183,
      "longitude": 56.3778
    },
    {
      "airport_name": "Kerman International Airport",
      "iata_code": "KER",
      "latitude": 30.2744,
      "longitude": 56.9511
    }
  ],
  "Iraq": [
    {
      "airport_name": "Baghdad International Airport",
      "iata_code": "BGW",
      "latitude": 33.2625,
      "longitude": 44.2346
    },
    {
      "airport_name": "Basra International Airport",
      "iata_code": "BSR",
      "latitude": 30.5491,
      "longitude": 47.6621
    },
    {
      "airport_name": "Erbil International Airport",
      "iata_code": "EBL",
      "latitude": 36.2376,
      "longitude": 43.9632
    },
    {
      "airport_name": "Sulaimaniyah International Airport",
      "iata_code": "ISU",
      "latitude": 35.5617,
      "longitude": 45.3167
    },
    {
      "airport_name": "Najaf International Airport",
      "iata_code": "NJF",
      "latitude": 31.989,
      "longitude": 44.4042
    },
    {
      "airport_name": "Mosul International Airport",
      "iata_code": "OSM",
      "latitude": 36.3058,
      "longitude": 43.1474
    },
    {
      "airport_name": "Kirkuk International Airport",
      "iata_code": "KIK",
      "latitude": 35.4695,
      "longitude": 44.3489
    },
    {
      "airport_name": "Al Najaf International Airport",
      "iata_code": "NJF",
      "latitude": 31.989,
      "longitude": 44.4042
    },
    {
      "airport_name": "Al Muthana Airport",
      "iata_code": "OSM",
      "latitude": 36.3058,
      "longitude": 43.1474
    },
    {
      "airport_name": "Al Sahra Airport",
      "iata_code": "KIK",
      "latitude": 35.4695,
      "longitude": 44.3489
    }
  ],
  "Ireland": [
    {
      "airport_name": "Dublin Airport",
      "iata_code": "DUB",
      "latitude": 53.4273,
      "longitude": -6.2436
    },
    {
      "airport_name": "Cork Airport",
      "iata_code": "ORK",
      "latitude": 51.8413,
      "longitude": -8.4911
    },
    {
      "airport_name": "Shannon Airport",
      "iata_code": "SNN",
      "latitude": 52.7019,
      "longitude": -8.9248
    },
    {
      "airport_name": "Kerry Airport",
      "iata_code": "KIR",
      "latitude": 52.1809,
      "longitude": -9.5238
    },
    {
      "airport_name": "Ireland West Airport Knock",
      "iata_code": "NOC",
      "latitude": 53.9103,
      "longitude": -8.8185
    },
    {
      "airport_name": "Waterford Airport",
      "iata_code": "WAT",
      "latitude": 52.1872,
      "longitude": -7.0869
    },
    {
      "airport_name": "Donegal Airport",
      "iata_code": "CFN",
      "latitude": 55.0442,
      "longitude": -8.341
    },
    {
      "airport_name": "Sligo Airport",
      "iata_code": "SXL",
      "latitude": 54.2802,
      "longitude": -8.5992
    },
    {
      "airport_name": "Galway Airport",
      "iata_code": "GWY",
      "latitude": 53.3002,
      "longitude": -8.9416
    },
    {
      "airport_name": "Kilkenny Airport",
      "iata_code": "KKY",
      "latitude": 52.6508,
      "longitude": -7.2721
    }
  ],
  "Israel": [
    {
      "airport_name": "Ben Gurion Airport",
      "iata_code": "TLV",
      "latitude": 32.0114,
      "longitude": 34.8867
    },
    {
      "airport_name": "Eilat Airport",
      "iata_code": "ETH",
      "latitude": 29.5613,
      "longitude": 34.9601
    },
    {
      "airport_name": "Haifa Airport",
      "iata_code": "HFA",
      "latitude": 32.8094,
      "longitude": 35.0431
    },
    {
      "airport_name": "Ovda Airport",
      "iata_code": "VDA",
      "latitude": 29.9403,
      "longitude": 34.9358
    },
    {
      "airport_name": "Sde Dov Airport",
      "iata_code": "SDV",
      "latitude": 32.1147,
      "longitude": 34.7822
    },
    {
      "airport_name": "Bar Yehuda Airfield",
      "iata_code": "MTZ",
      "latitude": 31.3281,
      "longitude": 35.3886
    },
    {
      "airport_name": "Be'er Sheva Airport",
      "iata_code": "BEV",
      "latitude": 31.287,
      "longitude": 34.7229
    },
    {
      "airport_name": "Ein Yahav Airfield",
      "iata_code": "EIY",
      "latitude": 30.6217,
      "longitude": 35.2033
    },
    {
      "airport_name": "Hatzerim Air Base",
      "iata_code": "LLHB",
      "latitude": 31.235,
      "longitude": 34.6622
    },
    {
      "airport_name": "Herzliya Airport",
      "iata_code": "HRZ",
      "latitude": 32.1836,
      "longitude": 34.8719
    }
  ],
  "Italy": [
    {
      "airport_name": "Leonardo da Vinci International Airport",
      "iata_code": "FCO",
      "latitude": 41.8003,
      "longitude": 12.2389
    },
    {
      "airport_name": "Malpensa Airport",
      "iata_code": "MXP",
      "latitude": 45.6301,
      "longitude": 8.7231
    },
    {
      "airport_name": "Marco Polo Airport",
      "iata_code": "VCE",
      "latitude": 45.5053,
      "longitude": 12.3519
    },
    {
      "airport_name": "Fiumicino Airport",
      "iata_code": "FCO",
      "latitude": 41.8003,
      "longitude": 12.2389
    },
    {
      "airport_name": "Linate Airport",
      "iata_code": "LIN",
      "latitude": 45.4451,
      "longitude": 9.2767
    },
    {
      "airport_name": "Bologna Guglielmo Marconi Airport",
      "iata_code": "BLQ",
      "latitude": 44.5354,
      "longitude": 11.2887
    },
    {
      "airport_name": "Naples International Airport",
      "iata_code": "NAP",
      "latitude": 40.886,
      "longitude": 14.2908
    },
    {
      "airport_name": "Catania-Fontanarossa Airport",
      "iata_code": "CTA",
      "latitude": 37.4668,
      "longitude": 15.0664
    },
    {
      "airport_name": "Pisa International Airport",
      "iata_code": "PSA",
      "latitude": 43.6839,
      "longitude": 10.3929
    },
    {
      "airport_name": "Palermo Airport",
      "iata_code": "PMO",
      "latitude": 38.1759,
      "longitude": 13.091
    }
  ],
  "Jordan": [
    {
      "airport_name": "Queen Alia International Airport",
      "iata_code": "AMM",
      "latitude": 31.7226,
      "longitude": 35.9932
    },
    {
      "airport_name": "King Hussein International Airport",
      "iata_code": "AQJ",
      "latitude": 29.6116,
      "longitude": 35.0181
    },
    {
      "airport_name": "Marka International Airport",
      "iata_code": "ADJ",
      "latitude": 31.9725,
      "longitude": 35.9916
    },
    {
      "airport_name": "Aqaba King Hussein International Airport",
      "iata_code": "AQJ",
      "latitude": 29.6116,
      "longitude": 35.0181
    },
    {
      "airport_name": "Amman Civil Airport",
      "iata_code": "ADJ",
      "latitude": 31.9725,
      "longitude": 35.9916
    },
    {
      "airport_name": "Amman Civil Airport",
      "iata_code": "ADJ",
      "latitude": 31.9725,
      "longitude": 35.9916
    },
    {
      "airport_name": "Amman Civil Airport",
      "iata_code": "ADJ",
      "latitude": 31.9725,
      "longitude": 35.9916
    },
    {
      "airport_name": "Amman Civil Airport",
      "iata_code": "ADJ",
      "latitude": 31.9725,
      "longitude": 35.9916
    },
    {
      "airport_name": "Amman Civil Airport",
      "iata_code": "ADJ",
      "latitude": 31.9725,
      "longitude": 35.9916
    },
    {
      "airport_name": "Amman Civil Airport",
      "iata_code": "ADJ",
      "latitude": 31.9725,
      "longitude": 35.9916
    }
  ],
  "Kazakhstan": [
    {
      "airport_name": "Nursultan Nazarbayev International Airport",
      "iata_code": "NQZ",
      "latitude": 51.0222,
      "longitude": 71.4669
    },
    {
      "airport_name": "Almaty International Airport",
      "iata_code": "ALA",
      "latitude": 43.3521,
      "longitude": 77.0405
    },
    {
      "airport_name": "Shymkent International Airport",
      "iata_code": "CIT",
      "latitude": 42.3642,
      "longitude": 69.4789
    },
    {
      "airport_name": "Aktau Airport",
      "iata_code": "SCO",
      "latitude": 43.8601,
      "longitude": 51.0919
    },
    {
      "airport_name": "Atyrau Airport",
      "iata_code": "GUW",
      "latitude": 47.1219,
      "longitude": 51.8214
    },
    {
      "airport_name": "Aktobe Airport",
      "iata_code": "AKX",
      "latitude": 50.2458,
      "longitude": 57.2067
    },
    {
      "airport_name": "Kostanay Airport",
      "iata_code": "KSN",
      "latitude": 53.2069,
      "longitude": 63.5503
    },
    {
      "airport_name": "Pavlodar Airport",
      "iata_code": "PWQ",
      "latitude": 52.1944,
      "longitude": 77.0731
    },
    {
      "airport_name": "Petropavl Airport",
      "iata_code": "PPK",
      "latitude": 54.7747,
      "longitude": 69.1839
    },
    {
      "airport_name": "Uralsk Airport",
      "iata_code": "URA",
      "latitude": 51.1508,
      "longitude": 51.5431
    }
  ],
  "Kosovo": [
    {
      "airport_name": "Pristina International Airport",
      "iata_code": "PRN",
      "latitude": 42.5728,
      "longitude": 21.035
    },
    {
      "airport_name": "Gjakova Airport",
      "iata_code": "GJK",
      "latitude": 42.4542,
      "longitude": 20.4153
    },
    {
      "airport_name": "Gnjilane Airport",
      "iata_code": "GJK",
      "latitude": 42.4542,
      "longitude": 20.4153
    },
    {
      "airport_name": "Goraždevac Airport",
      "iata_code": "GJK",
      "latitude": 42.4542,
      "longitude": 20.4153
    },
    {
      "airport_name": "Gračanica Airport",
      "iata_code": "GJK",
      "latitude": 42.4542,
      "longitude": 20.4153
    },
    {
      "airport_name": "Istok Airport",
      "iata_code": "GJK",
      "latitude": 42.4542,
      "longitude": 20.4153
    },
    {
      "airport_name": "Junik Airport",
      "iata_code": "GJK",
      "latitude": 42.4542,
      "longitude": 20.4153
    },
    {
      "airport_name": "Klinë Airport",
      "iata_code": "GJK",
      "latitude": 42.4542,
      "longitude": 20.4153
    },
    {
      "airport_name": "Kllokot Airport",
      "iata_code": "GJK",
      "latitude": 42.4542,
      "longitude": 20.4153
    },
    {
      "airport_name": "Kosovo Polje Airport",
      "iata_code": "GJK",
      "latitude": 42.4542,
      "longitude": 20.4153
    }
  ],
  "Kuwait": [
    {
      "airport_name": "Kuwait International Airport",
      "iata_code": "KWI",
      "latitude": 29.2266,
      "longitude": 47.9689
    },
    {
      "airport_name": "Ali Al Salem Air Base",
      "iata_code": "OKAS",
      "latitude": 29.3467,
      "longitude": 47.5206
    },
    {
      "airport_name": "Ahmed Al Jaber Air Base",
      "iata_code": "OKAJ",
      "latitude": 28.9348,
      "longitude": 47.7919
    },
    {
      "airport_name": "Abdullah Al-Mubarak Air Base",
      "iata_code": "OKBM",
      "latitude": 29.2266,
      "longitude": 47.9689
    },
    {
      "airport_name": "Ali Al Salem Air Base",
      "iata_code": "OKAS",
      "latitude": 29.3467,
      "longitude": 47.5206
    },
    {
      "airport_name": "Ahmed Al Jaber Air Base",
      "iata_code": "OKAJ",
      "latitude": 28.9348,
      "longitude": 47.7919
    },
    {
      "airport_name": "Abdullah Al-Mubarak Air Base",
      "iata_code": "OKBM",
      "latitude": 29.2266,
      "longitude": 47.9689
    },
    {
      "airport_name": "Ali Al Salem Air Base",
      "iata_code": "OKAS",
      "latitude": 29.3467,
      "longitude": 47.5206
    },
    {
      "airport_name": "Ahmed Al Jaber Air Base",
      "iata_code": "OKAJ",
      "latitude": 28.9348,
      "longitude": 47.7919
    },
    {
      "airport_name": "Abdullah Al-Mubarak Air Base",
      "iata_code": "OKBM",
      "latitude": 29.2266,
      "longitude": 47.9689
    }
  ],
  "Kyrgyzstan": [
    {
      "airport_name": "Manas International Airport",
      "iata_code": "FRU",
      "latitude": 43.0617,
      "longitude": 74.4776
    },
    {
      "airport_name": "Osh Airport",
      "iata_code": "OSS",
      "latitude": 40.609,
      "longitude": 72.7933
    },
    {
      "airport_name": "Issyk-Kul International Airport",
      "iata_code": "IKU",
      "latitude": 42.5879,
      "longitude": 76.7133
    },
    {
      "airport_name": "Karakol Airport",
      "iata_code": "KGF",
      "latitude": 42.4907,
      "longitude": 78.407
    },
    {
      "airport_name": "Batken Airport",
      "iata_code": "БАТ",
      "latitude": 40.0625,
      "longitude": 70.8194
    },
    {
      "airport_name": "Jalal-Abad Airport",
      "iata_code": "ДЖА",
      "latitude": 40.9429,
      "longitude": 73.0022
    },
    {
      "airport_name": "Kyzyl-Kiya Airport",
      "iata_code": "КЫЗ",
      "latitude": 40.2583,
      "longitude": 72.1278
    },
    {
      "airport_name": "Naryn Airport",
      "iata_code": "НАР",
      "latitude": 41.4267,
      "longitude": 76.1306
    },
    {
      "airport_name": "Talas Airport",
      "iata_code": "ТАЛ",
      "latitude": 42.5222,
      "longitude": 72.2422
    },
    {
      "airport_name": "Tokmok Airport",
      "iata_code": "ТОК",
      "latitude": 42.8417,
      "longitude": 75.3017
    }
  ],
  "Lebanon": [
    {
      "airport_name": "Beirut-Rafic Hariri International Airport",
      "iata_code": "BEY",
      "latitude": 33.8209,
      "longitude": 35.4884
    },
    {
      "airport_name": "Rene Mouawad Air Base",
      "iata_code": "KYE",
      "latitude": 34.5893,
      "longitude": 36.0113
    },
    {
      "airport_name": "Rayak Air Base",
      "iata_code": "BYB",
      "latitude": 33.8508,
      "longitude": 35.9917
    },
    {
      "airport_name": "Kleyate Air Base",
      "iata_code": "QKL",
      "latitude": 34.5893,
      "longitude": 36.0113
    },
    {
      "airport_name": "Kleyate Air Base",
      "iata_code": "QKL",
      "latitude": 34.5893,
      "longitude": 36.0113
    },
    {
      "airport_name": "Kleyate Air Base",
      "iata_code": "QKL",
      "latitude": 34.5893,
      "longitude": 36.0113
    },
    {
      "airport_name": "Kleyate Air Base",
      "iata_code": "QKL",
      "latitude": 34.5893,
      "longitude": 36.0113
    },
    {
      "airport_name": "Kleyate Air Base",
      "iata_code": "QKL",
      "latitude": 34.5893,
      "longitude": 36.0113
    },
    {
      "airport_name": "Kleyate Air Base",
      "iata_code": "QKL",
      "latitude": 34.5893,
      "longitude": 36.0113
    },
    {
      "airport_name": "Kleyate Air Base",
      "iata_code": "QKL",
      "latitude": 34.5893,
      "longitude": 36.0113
    }
  ],
  "Macedonia": [
    {
      "airport_name": "Skopje International Airport",
      "iata_code": "SKP",
      "latitude": 41.9616,
      "longitude": 21.6214
    },
    {
      "airport_name": "Ohrid St. Paul the Apostle Airport",
      "iata_code": "OHD",
      "latitude": 41.1818,
      "longitude": 20.7423
    },
    {
      "airport_name": "Gostivar Airport",
      "iata_code": "GOS",
      "latitude": 41.7976,
      "longitude": 20.9083
    },
    {
      "airport_name": "Kumanovo Airport",
      "iata_code": "KUM",
      "latitude": 42.1322,
      "longitude": 21.7144
    },
    {
      "airport_name": "Struga Airport",
      "iata_code": "STR",
      "latitude": 41.1775,
      "longitude": 20.6783
    },
    {
      "airport_name": "Tetovo Airport",
      "iata_code": "TET",
      "latitude": 42.0092,
      "longitude": 20.9714
    },
    {
      "airport_name": "Veles Airport",
      "iata_code": "VEZ",
      "latitude": 41.7156,
      "longitude": 21.7756
    },
    {
      "airport_name": "Bitola Airport",
      "iata_code": "BIT",
      "latitude": 41.0328,
      "longitude": 21.3403
    },
    {
      "airport_name": "Kavadarci Airport",
      "iata_code": "KAV",
      "latitude": 41.4333,
      "longitude": 22.0111
    },
    {
      "airport_name": "Kriva Palanka Airport",
      "iata_code": "KRI",
      "latitude": 42.2014,
      "longitude": 22.3311
    }
  ],
  "Moldova": [
    {
      "airport_name": "Chișinău International Airport",
      "iata_code": "KIV",
      "latitude": 46.9277,
      "longitude": 28.9309
    },
    {
      "airport_name": "Bălți International Airport",
      "iata_code": "BZY",
      "latitude": 47.8431,
      "longitude": 27.7772
    },
    {
      "airport_name": "Cahul International Airport",
      "iata_code": "CWL",
      "latitude": 45.8433,
      "longitude": 28.2639
    },
    {
      "airport_name": "Ceadîr-Lunga Airport",
      "iata_code": "CWL",
      "latitude": 46.0611,
      "longitude": 28.8306
    },
    {
      "airport_name": "Comrat Airport",
      "iata_code": "CWL",
      "latitude": 46.2992,
      "longitude": 28.6578
    },
    {
      "airport_name": "Dnestrovsc Airport",
      "iata_code": "CWL",
      "latitude": 46.6167,
      "longitude": 29.9167
    },
    {
      "airport_name": "Drochia Airport",
      "iata_code": "CWL",
      "latitude": 48.0333,
      "longitude": 27.8167
    },
    {
      "airport_name": "Dubăsari Airport",
      "iata_code": "CWL",
      "latitude": 47.2639,
      "longitude": 29.1606
    },
    {
      "airport_name": "Edineț Airport",
      "iata_code": "CWL",
      "latitude": 48.1667,
      "longitude": 27.3
    },
    {
      "airport_name": "Fălești Airport",
      "iata_code": "CWL",
      "latitude": 47.5761,
      "longitude": 27.7111
    }
  ],
  "Montenegro": [
    {
      "airport_name": "Podgorica Airport",
      "iata_code": "TGD",
      "latitude": 42.3594,
      "longitude": 19.2519
    },
    {
      "airport_name": "Tivat Airport",
      "iata_code": "TIV",
      "latitude": 42.4047,
      "longitude": 18.7233
    },
    {
      "airport_name": "Berane Airport",
      "iata_code": "IVG",
      "latitude": 42.8394,
      "longitude": 19.8622
    },
    {
      "airport_name": "Bijelo Polje Airport",
      "iata_code": "QBI",
      "latitude": 43.0389,
      "longitude": 19.7472
    },
    {
      "airport_name": "Cetinje Airport",
      "iata_code": "QBI",
      "latitude": 42.3906,
      "longitude": 18.9214
    },
    {
      "airport_name": "Danilovgrad Airport",
      "iata_code": "QBI",
      "latitude": 42.5533,
      "longitude": 19.1
    },
    {
      "airport_name": "Herceg Novi Airport",
      "iata_code": "QBI",
      "latitude": 42.4522,
      "longitude": 18.5311
    },
    {
      "airport_name": "Kolašin Airport",
      "iata_code": "QBI",
      "latitude": 42.8233,
      "longitude": 19.5222
    },
    {
      "airport_name": "Kotor Airport",
      "iata_code": "QBI",
      "latitude": 42.4247,
      "longitude": 18.7719
    },
    {
      "airport_name": "Mojkovac Airport",
      "iata_code": "QBI",
      "latitude": 42.9606,
      "longitude": 19.5822
    }
  ],
  "Morocco": [
    {
      "airport_name": "Mohammed V International Airport",
      "iata_code": "CMN",
      "latitude": 33.3675,
      "longitude": -7.5898
    }
  ],
  "Netherlands": [
    {
      "airport_name": "Amsterdam Airport Schiphol",
      "iata_code": "AMS",
      "latitude": 52.3086,
      "longitude": 4.7639
    },
    {
      "airport_name": "Eindhoven Airport",
      "iata_code": "EIN",
      "latitude": 51.4501,
      "longitude": 5.3745
    },
    {
      "airport_name": "Rotterdam The Hague Airport",
      "iata_code": "RTM",
      "latitude": 51.9569,
      "longitude": 4.4372
    },
    {
      "airport_name": "Maastricht Aachen Airport",
      "iata_code": "MST",
      "latitude": 50.9117,
      "longitude": 5.7701
    },
    {
      "airport_name": "Groningen Airport Eelde",
      "iata_code": "GRQ",
      "latitude": 53.1197,
      "longitude": 6.5794
    },
    {
      "airport_name": "Lelystad Airport",
      "iata_code": "LEY",
      "latitude": 52.4603,
      "longitude": 5.5272
    },
    {
      "airport_name": "Twente Airport",
      "iata_code": "ENS",
      "latitude": 52.2758,
      "longitude": 6.8892
    },
    {
      "airport_name": "Valkenburg Naval Air Base",
      "iata_code": "LID",
      "latitude": 52.1661,
      "longitude": 4.4179
    },
    {
      "airport_name": "De Kooy Airfield",
      "iata_code": "DHR",
      "latitude": 52.9234,
      "longitude": 4.7806
    },
    {
      "airport_name": "Deelen Air Base",
      "iata_code": "QYH",
      "latitude": 52.0606,
      "longitude": 5.8733
    }
  ],
  "Norway": [
    {
      "airport_name": "Oslo Airport",
      "iata_code": "OSL",
      "latitude": 60.1939,
      "longitude": 11.1004
    },
    {
      "airport_name": "Bergen Airport",
      "iata_code": "BGO",
      "latitude": 60.2934,
      "longitude": 5.2181
    },
    {
      "airport_name": "Stavanger Airport",
      "iata_code": "SVG",
      "latitude": 58.8767,
      "longitude": 5.6378
    },
    {
      "airport_name": "Trondheim Airport",
      "iata_code": "TRD",
      "latitude": 63.4578,
      "longitude": 10.924
    },
    {
      "airport_name": "Tromsø Airport",
      "iata_code": "TOS",
      "latitude": 69.6833,
      "longitude": 18.9189
    },
    {
      "airport_name": "Bodø Airport",
      "iata_code": "BOO",
      "latitude": 67.2692,
      "longitude": 14.3653
    },
    {
      "airport_name": "Kristiansand Airport",
      "iata_code": "KRS",
      "latitude": 58.2042,
      "longitude": 8.0854
    },
    {
      "airport_name": "Ålesund Airport",
      "iata_code": "AES",
      "latitude": 62.5625,
      "longitude": 6.1197
    },
    {
      "airport_name": "Molde Airport",
      "iata_code": "MOL",
      "latitude": 62.7447,
      "longitude": 7.2625
    },
    {
      "airport_name": "Sandefjord Airport",
      "iata_code": "TRF",
      "latitude": 59.1867,
      "longitude": 10.2586
    }
  ],
  "Oman": [
    {
      "airport_name": "Muscat International Airport",
      "iata_code": "MCT",
      "latitude": 23.5933,
      "longitude": 58.2844
    },
    {
      "airport_name": "Salalah Airport",
      "iata_code": "SLL",
      "latitude": 17.0387,
      "longitude": 54.0913
    },
    {
      "airport_name": "Sohar Airport",
      "iata_code": "OHS",
      "latitude": 24.3867,
      "longitude": 56.6256
    },
    {
      "airport_name": "Duqm Airport",
      "iata_code": "DQM",
      "latitude": 19.5019,
      "longitude": 57.6346
    },
    {
      "airport_name": "Khasab Airport",
      "iata_code": "KHS",
      "latitude": 26.1706,
      "longitude": 56.2406
    },
    {
      "airport_name": "Sur Airport",
      "iata_code": "SUH",
      "latitude": 22.5333,
      "longitude": 59.4833
    },
    {
      "airport_name": "Thumrait Airport",
      "iata_code": "TTH",
      "latitude": 17.666,
      "longitude": 54.0246
    },
    {
      "airport_name": "Qarn Alam Airport",
      "iata_code": "QRM",
      "latitude": 21.3761,
      "longitude": 57.045
    },
    {
      "airport_name": "Raysut Airport",
      "iata_code": "RYT",
      "latitude": 16.9381,
      "longitude": 54.0094
    },
    {
      "airport_name": "Adam Airport",
      "iata_code": "ADA",
      "latitude": 22.375,
      "longitude": 57.5242
    }
  ],
  "Pakistan": [
    {
      "airport_name": "Jinnah International Airport",
      "iata_code": "KHI",
      "latitude": 24.9065,
      "longitude": 67.1608
    },
    {
      "airport_name": "Allama Iqbal International Airport",
      "iata_code": "LHE",
      "latitude": 31.5216,
      "longitude": 74.4036
    },
    {
      "airport_name": "Benazir Bhutto International Airport",
      "iata_code": "ISB",
      "latitude": 33.6167,
      "longitude": 73.0992
    },
    {
      "airport_name": "Multan International Airport",
      "iata_code": "MUX",
      "latitude": 30.2032,
      "longitude": 71.4191
    },
    {
      "airport_name": "Faisalabad International Airport",
      "iata_code": "LYP",
      "latitude": 31.3644,
      "longitude": 72.9948
    },
    {
      "airport_name": "Quetta International Airport",
      "iata_code": "UET",
      "latitude": 30.2514,
      "longitude": 66.9378
    },
    {
      "airport_name": "Sialkot International Airport",
      "iata_code": "SKT",
      "latitude": 32.5356,
      "longitude": 74.3639
    },
    {
      "airport_name": "Saidu Sharif Airport",
      "iata_code": "SDT",
      "latitude": 34.8136,
      "longitude": 72.3528
    },
    {
      "airport_name": "Gwadar International Airport",
      "iata_code": "GWD",
      "latitude": 25.2333,
      "longitude": 62.3295
    },
    {
      "airport_name": "Bahawalpur Airport",
      "iata_code": "BHV",
      "latitude": 29.3481,
      "longitude": 71.718
    }
  ],
  "Poland": [
    {
      "airport_name": "Warsaw Chopin Airport",
      "iata_code": "WAW",
      "latitude": 52.1657,
      "longitude": 20.9671
    },
    {
      "airport_name": "Kraków John Paul II International Airport",
      "iata_code": "KRK",
      "latitude": 50.0777,
      "longitude": 19.7848
    },
    {
      "airport_name": "Gdańsk Lech Wałęsa Airport",
      "iata_code": "GDN",
      "latitude": 54.3776,
      "longitude": 18.4662
    },
    {
      "airport_name": "Wrocław–Copernicus Airport",
      "iata_code": "WRO",
      "latitude": 51.1027,
      "longitude": 16.8858
    },
    {
      "airport_name": "Katowice International Airport",
      "iata_code": "KTW",
      "latitude": 50.4743,
      "longitude": 19.0801
    },
    {
      "airport_name": "Poznań–Ławica Airport",
      "iata_code": "POZ",
      "latitude": 52.421,
      "longitude": 16.8263
    },
    {
      "airport_name": "Szczecin-Goleniów Airport",
      "iata_code": "SZZ",
      "latitude": 53.5847,
      "longitude": 14.9022
    },
    {
      "airport_name": "Bydgoszcz Ignacy Jan Paderewski Airport",
      "iata_code": "BZG",
      "latitude": 53.0968,
      "longitude": 17.9777
    },
    {
      "airport_name": "Lublin Airport",
      "iata_code": "LUZ",
      "latitude": 51.2403,
      "longitude": 22.7136
    },
    {
      "airport_name": "Rzeszów-Jasionka Airport",
      "iata_code": "RZE",
      "latitude": 50.1094,
      "longitude": 22.019
    }
  ],
  "Portugal": [
    {
      "airport_name": "Lisbon Portela Airport",
      "iata_code": "LIS",
      "latitude": 38.7742,
      "longitude": -9.1342
    },
    {
      "airport_name": "Porto Airport",
      "iata_code": "OPO",
      "latitude": 41.2421,
      "longitude": -8.6781
    },
    {
      "airport_name": "Faro Airport",
      "iata_code": "FAO",
      "latitude": 37.0145,
      "longitude": -7.9659
    },
    {
      "airport_name": "Madeira Airport",
      "iata_code": "FNC",
      "latitude": 32.6979,
      "longitude": -16.7745
    },
    {
      "airport_name": "João Paulo II Airport",
      "iata_code": "PDL",
      "latitude": 37.7412,
      "longitude": -25.6979
    },
    {
      "airport_name": "Santa Maria Airport",
      "iata_code": "SMA",
      "latitude": 36.9714,
      "longitude": -25.1706
    },
    {
      "airport_name": "Horta Airport",
      "iata_code": "HOR",
      "latitude": 38.5199,
      "longitude": -28.7159
    },
    {
      "airport_name": "Pico Airport",
      "iata_code": "PIX",
      "latitude": 38.5543,
      "longitude": -28.4413
    },
    {
      "airport_name": "Graciosa Airport",
      "iata_code": "GRW",
      "latitude": 39.0922,
      "longitude": -28.0298
    },
    {
      "airport_name": "Flores Airport",
      "iata_code": "FLW",
      "latitude": 39.4553,
      "longitude": -31.1314
    }
  ],
  "Qatar": [
    {
      "airport_name": "Hamad International Airport",
      "iata_code": "DOH",
      "latitude": 25.2731,
      "longitude": 51.6083
    },
    {
      "airport_name": "Doha International Airport",
      "iata_code": "DOH",
      "latitude": 25.2611,
      "longitude": 51.565
    },
    {
      "airport_name": "Al Udeid Air Base",
      "iata_code": "XJD",
      "latitude": 25.1173,
      "longitude": 51.315
    },
    {
      "airport_name": "Al Udeid Air Base",
      "iata_code": "XJD",
      "latitude": 25.1173,
      "longitude": 51.315
    },
    {
      "airport_name": "Al Udeid Air Base",
      "iata_code": "XJD",
      "latitude": 25.1173,
      "longitude": 51.315
    },
    {
      "airport_name": "Al Udeid Air Base",
      "iata_code": "XJD",
      "latitude": 25.1173,
      "longitude": 51.315
    },
    {
      "airport_name": "Al Udeid Air Base",
      "iata_code": "XJD",
      "latitude": 25.1173,
      "longitude": 51.315
    },
    {
      "airport_name": "Al Udeid Air Base",
      "iata_code": "XJD",
      "latitude": 25.1173,
      "longitude": 51.315
    },
    {
      "airport_name": "Al Udeid Air Base",
      "iata_code": "XJD",
      "latitude": 25.1173,
      "longitude": 51.315
    },
    {
      "airport_name": "Al Udeid Air Base",
      "iata_code": "XJD",
      "latitude": 25.1173,
      "longitude": 51.315
    }
  ],
  "Romania": [
    {
      "airport_name": "Henri Coandă International Airport",
      "iata_code": "OTP",
      "latitude": 44.5711,
      "longitude": 26.085
    },
    {
      "airport_name": "Cluj International Airport",
      "iata_code": "CLJ",
      "latitude": 46.7852,
      "longitude": 23.6862
    },
    {
      "airport_name": "Timișoara Traian Vuia International Airport",
      "iata_code": "TSR",
      "latitude": 45.8099,
      "longitude": 21.3379
    },
    {
      "airport_name": "Iași International Airport",
      "iata_code": "IAS",
      "latitude": 47.1785,
      "longitude": 27.6206
    },
    {
      "airport_name": "Sibiu International Airport",
      "iata_code": "SBZ",
      "latitude": 45.7856,
      "longitude": 24.0913
    },
    {
      "airport_name": "Craiova International Airport",
      "iata_code": "CRA",
      "latitude": 44.3181,
      "longitude": 23.8886
    },
    {
      "airport_name": "Bacău George Enescu International Airport",
      "iata_code": "BCM",
      "latitude": 46.5219,
      "longitude": 26.9103
    },
    {
      "airport_name": "Oradea International Airport",
      "iata_code": "OMR",
      "latitude": 47.0253,
      "longitude": 21.9025
    },
    {
      "airport_name": "Satu Mare International Airport",
      "iata_code": "SUJ",
      "latitude": 47.7033,
      "longitude": 22.8857
    }
  ],
  "Russian Federation": [
    {
      "airport_name": "Sheremetyevo International Airport",
      "iata_code": "SVO",
      "latitude": 55.9726,
      "longitude": 37.4146
    },
    {
      "airport_name": "Domodedovo International Airport",
      "iata_code": "DME",
      "latitude": 55.4088,
      "longitude": 37.9063
    },
    {
      "airport_name": "Vnukovo International Airport",
      "iata_code": "VKO",
      "latitude": 55.5915,
      "longitude": 37.2615
    },
    {
      "airport_name": "Pulkovo Airport",
      "iata_code": "LED",
      "latitude": 59.8003,
      "longitude": 30.2625
    },
    {
      "airport_name": "Koltsovo Airport",
      "iata_code": "SVX",
      "latitude": 56.7431,
      "longitude": 60.8027
    },
    {
      "airport_name": "Kazan International Airport",
      "iata_code": "KZN",
      "latitude": 55.6062,
      "longitude": 49.2787
    },
    {
      "airport_name": "Sochi International Airport",
      "iata_code": "AER",
      "latitude": 43.4499,
      "longitude": 39.9566
    },
    {
      "airport_name": "Rostov-on-Don Airport",
      "iata_code": "ROV",
      "latitude": 47.2582,
      "longitude": 39.8181
    },
    {
      "airport_name": "Ufa International Airport",
      "iata_code": "UFA",
      "latitude": 54.5575,
      "longitude": 55.8744
    },
    {
      "airport_name": "Krasnodar International Airport",
      "iata_code": "KRR",
      "latitude": 45.0347,
      "longitude": 39.1705
    }
  ],
  "Saudi Arabia": [
    {
      "airport_name": "King Abdulaziz International Airport",
      "iata_code": "JED",
      "latitude": 21.6796,
      "longitude": 39.1565
    },
    {
      "airport_name": "King Khalid International Airport",
      "iata_code": "RUH",
      "latitude": 24.9576,
      "longitude": 46.6988
    },
    {
      "airport_name": "King Fahd International Airport",
      "iata_code": "DMM",
      "latitude": 26.4712,
      "longitude": 49.7979
    },
    {
      "airport_name": "Prince Mohammad Bin Abdulaziz Airport",
      "iata_code": "MED",
      "latitude": 24.5534,
      "longitude": 39.7051
    },
    {
      "airport_name": "King Fahd International Airport",
      "iata_code": "DMM",
      "latitude": 26.4712,
      "longitude": 49.7979
    },
    {
      "airport_name": "King Fahd International Airport",
      "iata_code": "DMM",
      "latitude": 26.4712,
      "longitude": 49.7979
    },
    {
      "airport_name": "King Fahd International Airport",
      "iata_code": "DMM",
      "latitude": 26.4712,
      "longitude": 49.7979
    },
    {
      "airport_name": "King Fahd International Airport",
      "iata_code": "DMM",
      "latitude": 26.4712,
      "longitude": 49.7979
    },
    {
      "airport_name": "King Fahd International Airport",
      "iata_code": "DMM",
      "latitude": 26.4712,
      "longitude": 49.7979
    },
    {
      "airport_name": "King Fahd International Airport",
      "iata_code": "DMM",
      "latitude": 26.4712,
      "longitude": 49.7979
    }
  ],
  "Serbia": [
    {
      "airport_name": "Belgrade Nikola Tesla Airport",
      "iata_code": "BEG",
      "latitude": 44.8184,
      "longitude": 20.3091
    },
    {
      "airport_name": "Niš Constantine the Great Airport",
      "iata_code": "INI",
      "latitude": 43.3373,
      "longitude": 21.8537
    },
    {
      "airport_name": "Morava Airport",
      "iata_code": "KVO",
      "latitude": 43.8183,
      "longitude": 20.5872
    },
    {
      "airport_name": "Ponikve Airport",
      "iata_code": "UZC",
      "latitude": 43.8986,
      "longitude": 19.6976
    },
    {
      "airport_name": "Vršac International Airport",
      "iata_code": "QND",
      "latitude": 45.1469,
      "longitude": 21.3097
    },
    {
      "airport_name": "Zrenjanin Airport",
      "iata_code": "QND",
      "latitude": 45.3833,
      "longitude": 20.3833
    },
    {
      "airport_name": "Batajnica Air Base",
      "iata_code": "BJY",
      "latitude": 44.9353,
      "longitude": 20.2575
    },
    {
      "airport_name": "Lađevci Airport",
      "iata_code": "QND",
      "latitude": 43.8183,
      "longitude": 20.5872
    },
    {
      "airport_name": "Petrovac Airport",
      "iata_code": "QND",
      "latitude": 44.3833,
      "longitude": 21.4167
    },
    {
      "airport_name": "Sombor Airport",
      "iata_code": "QND",
      "latitude": 45.7667,
      "longitude": 19.1167
    }
  ],
  "Slovakia": [
    {
      "airport": "M. R. Štefánik Airport",
      "iata_code": "BTS",
      "latitude": 48.1702,
      "longitude": 17.2127
    },
    {
      "airport": "Košice International Airport",
      "iata_code": "KSC",
      "latitude": 48.6631,
      "longitude": 21.2411
    }
  ],
  "Spain": [
    {
      "airport_name": "Adolfo Suárez Madrid–Barajas Airport",
      "iata_code": "MAD",
      "latitude": 40.4719,
      "longitude": -3.5626
    },
    {
      "airport_name": "Barcelona–El Prat Airport",
      "iata_code": "BCN",
      "latitude": 41.2974,
      "longitude": 2.0833
    },
    {
      "airport_name": "Palma de Mallorca Airport",
      "iata_code": "PMI",
      "latitude": 39.5517,
      "longitude": 2.7388
    },
    {
      "airport_name": "Málaga Airport",
      "iata_code": "AGP",
      "latitude": 36.6749,
      "longitude": -4.4991
    },
    {
      "airport_name": "Alicante–Elche Airport",
      "iata_code": "ALC",
      "latitude": 38.2822,
      "longitude": -0.5582
    },
    {
      "airport_name": "Gran Canaria Airport",
      "iata_code": "LPA",
      "latitude": 27.9319,
      "longitude": -15.3866
    },
    {
      "airport_name": "Tenerife South Airport",
      "iata_code": "TFS",
      "latitude": 28.0445,
      "longitude": -16.5725
    },
    {
      "airport_name": "Ibiza Airport",
      "iata_code": "IBZ",
      "latitude": 38.8729,
      "longitude": 1.3731
    },
    {
      "airport_name": "Valencia Airport",
      "iata_code": "VLC",
      "latitude": 39.4893,
      "longitude": -0.4816
    },
    {
      "airport_name": "Seville Airport",
      "iata_code": "SVQ",
      "latitude": 37.418,
      "longitude": -5.8931
    }
  ],
  "Sweden": [
    {
      "airport_name": "Stockholm Arlanda Airport",
      "iata_code": "ARN",
      "latitude": 59.6519,
      "longitude": 17.9186
    },
    {
      "airport_name": "Gothenburg Landvetter Airport",
      "iata_code": "GOT",
      "latitude": 57.6628,
      "longitude": 12.2798
    },
    {
      "airport_name": "Stockholm Skavsta Airport",
      "iata_code": "NYO",
      "latitude": 58.7886,
      "longitude": 16.9122
    },
    {
      "airport_name": "Stockholm Bromma Airport",
      "iata_code": "BMA",
      "latitude": 59.3544,
      "longitude": 17.9417
    },
    {
      "airport_name": "Malmö Airport",
      "iata_code": "MMX",
      "latitude": 55.5363,
      "longitude": 13.3762
    },
    {
      "airport_name": "Umeå Airport",
      "iata_code": "UME",
      "latitude": 63.7919,
      "longitude": 20.2828
    },
    {
      "airport_name": "Luleå Airport",
      "iata_code": "LLA",
      "latitude": 65.5438,
      "longitude": 22.122
    },
    {
      "airport_name": "Kiruna Airport",
      "iata_code": "KRN",
      "latitude": 67.821,
      "longitude": 20.3368
    },
    {
      "airport_name": "Visby Airport",
      "iata_code": "VBY",
      "latitude": 57.6628,
      "longitude": 18.3462
    },
    {
      "airport_name": "Östersund Airport",
      "iata_code": "OSD",
      "latitude": 63.1944,
      "longitude": 14.5003
    }
  ],
  "Switzerland": [
    {
      "airport": "Zurich Airport",
      "iata_code": "ZRH",
      "latitude": 47.4647,
      "longitude": 8.5492
    },
    {
      "airport": "Geneva Airport",
      "iata_code": "GVA",
      "latitude": 46.2381,
      "longitude": 6.109
    },
    {
      "airport": "EuroAirport Basel-Mulhouse-Freiburg",
      "iata_code": "BSL",
      "latitude": 47.59,
      "longitude": 7.5292
    }
  ],
  "Turkish Republic of Northern Cyprus": [
    {
      "airport": "Ercan International Airport",
      "iata_code": "ECN",
      "latitude": 35.1547,
      "longitude": 33.4961
    }
  ]
    
  }